[
    {
        "attempt": 1,
        "timestamp": "2025-11-05 09:37:34",
        "data": {
            "name": "Joko Susilo",
            "phone": "6285775460982",
            "email": "jokosusilo173@example.com",
            "notes": "Jangan lupa reminder",
            "address": "Jl. Sudirman Kav. 25, Apartemen Senopati, Unit 8A, Jakarta Selatan",
            "location": {
                "province": "Kalimantan Barat",
                "city": "Kab. Bengkayang",
                "district": "Jagoi Babang"
            }
        }
    },
    {
        "attempt": 2,
        "timestamp": "2025-11-05 09:38:50",
        "data": {
            "name": "Deni Saputra",
            "phone": "6283843881825",
            "email": "denisaputra262@example.com",
            "notes": "Butuh invoice",
            "address": "Jl. Asia Afrika No. 155, Bandung",
            "location": {
                "province": "Kalimantan Barat",
                "city": "Kab. Bengkayang",
                "district": "Lembah Bawang"
            }
        }
    },
    {
        "attempt": 3,
        "timestamp": "2025-11-05 09:40:17",
        "data": {
            "name": "Eko Wibowo",
            "phone": "6285784553098",
            "email": "ekowibowo342@example.com",
            "notes": "Hadiah untuk teman",
            "address": "Jl. Asia Afrika No. 155, Bandung",
            "location": {
                "province": "Kalimantan Barat",
                "city": "Kab. Bengkayang",
                "district": "Lembah Bawang"
            }
        }
    },
    {
        "attempt": 1,
        "timestamp": "2025-11-05 10:12:43",
        "data": {
            "name": "Deni Saputra",
            "phone": "6283843462756",
            "email": "denisaputra2285@example.com",
            "notes": "Packing aman ya",
            "address": "Jl. Gajah Mada No. 33, Semarang",
            "location": {
                "province": "Kalimantan Barat",
                "city": "Kab. Bengkayang",
                "district": "Lembah Bawang"
            }
        }
    },
    {
        "attempt": 1,
        "timestamp": "2025-11-05 10:19:01",
        "data": {
            "name": "Irfan Maulana",
            "phone": "6281217817576",
            "email": "irfanmaulana2619@example.com",
            "notes": "Packing aman ya",
            "address": "Jl. Siliwangi No. 76, Bogor",
            "location": {
                "province": "Kalimantan Barat",
                "city": "Kab. Bengkayang",
                "district": "Tujuh Belas"
            }
        }
    },
    {
        "attempt": 2,
        "timestamp": "2025-11-05 10:21:59",
        "data": {
            "name": "Joko Susilo",
            "phone": "6285601150186",
            "email": "jokosusilo2750@example.com",
            "notes": "Semoga berjalan lancar",
            "address": "Jl. Gatot Subroto No. 20, Makassar",
            "location": {
                "province": "Kalimantan Barat",
                "city": "Kab. Bengkayang",
                "district": "Tujuh Belas"
            }
        }
    },
    {
        "attempt": 4,
        "timestamp": "2025-11-05 10:28:43",
        "data": {
            "name": "Cahyo Nugroho",
            "phone": "6281210022008",
            "email": "cahyonugroho3208@example.com",
            "notes": "Semoga bermanfaat",
            "address": "Jl. Raya Bintaro Sektor 3, Tangerang Selatan",
            "location": {
                "province": "Kalimantan Barat",
                "city": "Kab. Bengkayang",
                "district": "Jagoi Babang"
            }
        }
    },
    {
        "attempt": 5,
        "timestamp": "2025-11-05 10:30:42",
        "data": {
            "name": "Deni Saputra",
            "phone": "6285717895872",
            "email": "denisaputra3328@example.com",
            "notes": "Terima kasih",
            "address": "Jl. Gajah Mada No. 33, Semarang",
            "location": {
                "province": "Kalimantan Barat",
                "city": "Kab. Bengkayang",
                "district": "Jagoi Babang"
            }
        }
    },
    {
        "attempt": 6,
        "timestamp": "2025-11-05 10:32:06",
        "data": {
            "name": "Eko Wibowo",
            "phone": "6281393731276",
            "email": "ekowibowo3453@example.com",
            "notes": "Jangan lupa reminder",
            "address": "Jl. Gatot Subroto No. 20, Makassar",
            "location": {
                "province": "Kalimantan Barat",
                "city": "Kab. Bengkayang",
                "district": "Lembah Bawang"
            }
        }
    },
    {
        "attempt": 7,
        "timestamp": "2025-11-05 10:33:41",
        "data": {
            "name": "Andi Pratama",
            "phone": "62895402345780",
            "email": "andipratama3537@example.com",
            "notes": "Ditunggu akses webinarnya",
            "address": "Jl. Sudirman Kav. 25, Apartemen Senopati, Unit 8A, Jakarta Selatan",
            "location": {
                "province": "Kalimantan Barat",
                "city": "Kab. Bengkayang",
                "district": "Lembah Bawang"
            }
        }
    },
    {
        "attempt": 8,
        "timestamp": "2025-11-05 10:35:04",
        "data": {
            "name": "Eko Wibowo",
            "phone": "6288708368545",
            "email": "ekowibowo3628@example.com",
            "notes": "Apakah ada grup WA?",
            "address": "Jl. Merdeka No. 17, RT 01 RW 02, Jakarta Pusat",
            "location": {
                "province": "Kalimantan Barat",
                "city": "Kab. Bengkayang",
                "district": "Jagoi Babang"
            }
        }
    },
    {
        "attempt": 1,
        "timestamp": "2025-11-05 10:39:11",
        "data": {
            "name": "Irfan Maulana",
            "phone": "6282174111200",
            "email": "irfanmaulana3842@example.com",
            "notes": "Transfer via BCA",
            "address": "Jl. Kemerdekaan No. 9, Palembang",
            "location": {
                "province": "Kalimantan Barat",
                "city": "Kota Pontianak",
                "district": "Pontianak Kota"
            }
        }
    }
]